City_ID,City,Country,Lat,Lng,Max Temp,Humidity,Cloudiness,Wind Speed,Current Description
0,Rikitea,PF,-23.1203,-134.9692,78.26,72,76,12.1,light rain
1,Kaitangata,NZ,-46.2817,169.8464,53.92,81,16,2.86,few clouds
2,Poum,NC,-20.2333,164.0167,81.57,78,94,13.53,overcast clouds
3,Carnarvon,AU,-24.8667,113.6333,77.07,88,3,5.75,clear sky
4,Kudahuvadhoo,MV,2.6708,72.8944,81.55,78,100,10.83,overcast clouds
5,Honningsvag,NO,70.9821,25.9704,20.95,86,100,13.8,snow
6,Busselton,AU,-33.65,115.3333,63.05,75,0,11.5,clear sky
7,Narsaq,GL,60.9167,-46.05,28.62,90,100,7.0,overcast clouds
8,Bluff,NZ,-46.6,168.3333,47.8,87,9,6.11,clear sky
9,Mar Del Plata,AR,-38.0023,-57.5575,69.82,61,0,9.22,clear sky
10,Tiarei,PF,-17.5333,-149.3333,86.02,77,81,15.86,light rain
11,Nong Chik,TH,6.8436,101.178,83.08,91,98,7.9,overcast clouds
12,Tuatapere,NZ,-46.1333,167.6833,46.81,83,11,4.07,few clouds
13,Collie,AU,-33.3667,116.15,58.98,73,0,7.49,clear sky
14,Cherskiy,RU,68.75,161.3,-21.01,97,100,7.94,overcast clouds
15,Mogadishu,SO,2.0371,45.3438,77.43,82,100,17.81,overcast clouds
16,Yellowknife,CA,62.456,-114.3525,-12.71,73,75,4.61,broken clouds
17,Luganville,VU,-15.5333,167.1667,80.06,86,100,10.45,overcast clouds
18,Mataura,NZ,-46.1927,168.8643,46.47,97,27,2.95,scattered clouds
19,Barrow,US,71.2906,-156.7887,-29.18,68,0,9.22,clear sky
20,Ushuaia,AR,-54.8,-68.3,40.66,81,100,26.46,moderate rain
21,Salinopolis,BR,-0.6136,-47.3561,78.91,85,100,7.74,light rain
22,East London,ZA,-33.0153,27.9116,73.54,82,71,8.32,broken clouds
23,Saint Anthony,US,45.0205,-93.218,9.91,52,0,9.22,clear sky
24,Inuvik,CA,68.3499,-133.7218,-24.74,75,75,2.3,broken clouds
25,Norman Wells,CA,65.282,-126.8329,-11.16,64,75,5.75,broken clouds
26,Port Alfred,ZA,-33.5906,26.891,72.9,84,96,10.2,overcast clouds
27,Cape Town,ZA,-33.9258,18.4232,69.28,83,20,21.85,few clouds
28,Butaritari,KI,3.0707,172.7902,81.77,75,52,12.62,broken clouds
29,Te Anau,NZ,-45.4167,167.7167,47.35,88,34,1.59,scattered clouds
30,Provideniya,RU,64.3833,-173.3,-14.48,95,19,3.15,few clouds
31,Jutai,BR,-5.1833,-68.9,75.76,97,100,2.89,moderate rain
32,Ambon,ID,-3.6954,128.1814,77.14,88,40,5.75,scattered clouds
33,Marrakesh,MA,31.6315,-8.0083,64.47,25,0,4.61,clear sky
34,Erzin,TR,36.9559,36.2,50.72,76,97,2.46,overcast clouds
35,Nanchang,CN,28.6833,115.8833,44.78,86,99,4.52,overcast clouds
36,Vaini,TO,-21.2,-175.2,80.76,83,40,5.75,scattered clouds
37,Lata,PT,40.1629,-8.3327,54.05,97,54,5.64,broken clouds
38,Tam Ky,VN,15.5667,108.4833,71.58,93,100,4.97,overcast clouds
39,Hithadhoo,MV,-0.6,73.0833,82.15,75,67,9.46,broken clouds
40,Tautira,PF,-17.7333,-149.15,86.02,76,91,16.15,light rain
41,Arraial Do Cabo,BR,-22.9661,-42.0278,80.56,74,40,16.11,scattered clouds
42,Tuktoyaktuk,CA,69.4541,-133.0374,-36.4,74,20,9.22,few clouds
43,Chokurdakh,RU,70.6333,147.9167,-4.25,96,100,10.49,overcast clouds
44,Taltal,CL,-25.4,-70.4833,71.46,68,14,7.52,few clouds
45,Great Falls,US,47.5002,-111.3008,52.99,28,0,5.75,clear sky
46,Bredasdorp,ZA,-34.5322,20.0403,69.12,73,92,14.97,overcast clouds
47,Hobart,AU,-42.8794,147.3294,60.66,82,75,14.97,broken clouds
48,Da Nang,VN,16.0678,108.2208,71.58,83,75,4.61,broken clouds
49,Cabo San Lucas,MX,22.8909,-109.9124,84.61,50,75,9.22,broken clouds
50,Hermanus,ZA,-34.4187,19.2345,72.9,83,26,16.22,scattered clouds
51,Ilulissat,GL,69.2167,-51.1,23.02,50,75,13.8,broken clouds
52,New Norfolk,AU,-42.7826,147.0587,60.3,68,90,0.98,overcast clouds
53,Jamestown,US,42.097,-79.2353,22.64,38,100,5.75,overcast clouds
54,Albany,US,42.6001,-73.9662,26.17,54,100,3.0,overcast clouds
55,Qaanaaq,GL,77.484,-69.3632,-7.82,89,100,2.95,overcast clouds
56,Vardo,NO,70.3705,31.1107,26.58,63,75,24.16,broken clouds
57,Port Elizabeth,ZA,-33.918,25.5701,70.09,78,75,12.66,broken clouds
58,Salisbury,GB,51.0693,-1.7957,50.65,96,100,19.57,mist
59,Shahr-E Babak,IR,30.1165,55.1186,38.44,53,1,12.21,clear sky
60,Karratha,AU,-20.7377,116.8463,84.02,63,84,7.49,broken clouds
61,Atuona,PF,-9.8,-139.0333,77.54,79,24,14.74,light rain
62,Leningradskiy,RU,69.3833,178.4167,-16.15,93,97,5.91,overcast clouds
63,Adrar,MR,20.5022,-10.0711,66.02,19,46,10.18,scattered clouds
64,Mount Isa,AU,-20.7333,139.5,73.17,88,33,0.0,scattered clouds
65,Mehamn,NO,71.0357,27.8492,21.38,93,100,16.24,snow
66,Paltinis,RO,48.2167,26.65,37.02,63,0,10.89,clear sky
67,Ancud,CL,-41.8697,-73.8203,83.23,72,24,6.06,few clouds
68,Severo-Kurilsk,RU,50.6789,156.125,21.92,70,36,10.22,scattered clouds
69,Darnah,LY,32.767,22.6367,55.9,69,0,9.73,clear sky
70,Faanui,PF,-16.4833,-151.75,80.82,74,100,15.28,light rain
71,Villarrica,PY,-25.75,-56.4333,92.57,32,13,7.67,few clouds
72,Asau,RO,46.4333,26.4,30.96,82,100,3.71,overcast clouds
73,Alofi,NU,-19.0595,-169.9187,78.69,89,100,6.91,overcast clouds
74,Nanyamba,TZ,-10.6833,39.8333,72.41,98,72,3.24,broken clouds
75,Colac,AU,-38.3333,143.5833,61.43,68,6,2.89,clear sky
76,Laguna,US,38.421,-121.4238,79.34,44,0,3.44,clear sky
77,Airai,TL,-8.9266,125.4092,58.48,90,37,1.92,scattered clouds
78,Weiser,US,44.251,-116.9693,43.61,82,5,0.94,clear sky
79,Castro,BR,-24.7911,-50.0119,81.64,52,6,2.91,clear sky
80,Clyde River,CA,70.4692,-68.5914,-23.57,76,0,12.66,haze
81,Srednekolymsk,RU,67.45,153.6833,-33.47,99,18,6.06,few clouds
82,Martapura,ID,-3.4167,114.85,77.09,94,100,1.14,overcast clouds
83,Husavik,IS,66.0449,-17.3389,-4.09,80,71,14.05,broken clouds
84,Dingle,PH,10.9995,122.6711,74.28,93,91,6.38,overcast clouds
85,Puerto Escondido,MX,15.85,-97.0667,86.83,70,75,3.44,broken clouds
86,Labytnangi,RU,66.6572,66.4183,-17.28,100,100,1.97,overcast clouds
87,Saskylakh,RU,71.9167,114.0833,-16.6,86,26,3.22,scattered clouds
88,Saint-Philippe,RE,-21.3585,55.7679,80.19,85,34,7.47,scattered clouds
89,Vestmannaeyjar,IS,63.4427,-20.2734,33.6,74,98,28.48,overcast clouds
90,Thompson,CA,55.7435,-97.8558,-7.44,71,100,8.05,overcast clouds
91,Ribeira Grande,PT,38.5167,-28.7,61.2,59,40,4.61,scattered clouds
92,Viedma,AR,-40.8135,-62.9967,92.39,13,0,7.9,clear sky
93,Takoradi,GH,4.8845,-1.7554,79.52,84,24,8.37,light rain
94,Punta Arenas,CL,-53.15,-70.9167,50.11,50,40,39.12,scattered clouds
95,Codrington,AU,-38.2667,141.9667,59.86,89,61,6.78,broken clouds
96,Capinzal,BR,-27.3436,-51.6119,85.96,49,71,7.58,broken clouds
97,Qurbus,TN,36.8167,10.5687,55.44,82,98,9.93,overcast clouds
98,Bambous Virieux,MU,-20.3428,57.7575,81.21,89,75,6.91,broken clouds
99,Kapaa,US,22.0752,-159.319,75.18,76,40,14.97,scattered clouds
100,Kushima,JP,31.4583,131.2333,53.11,94,100,3.74,light rain
101,Brae,GB,60.3964,-1.353,40.91,88,100,11.25,overcast clouds
102,Bathsheba,BB,13.2167,-59.5167,83.01,65,40,18.41,scattered clouds
103,Kedougou,SN,12.5579,-12.1743,90.18,18,0,2.3,clear sky
104,Nabire,ID,-3.3667,135.4833,75.54,92,100,3.56,overcast clouds
105,Karasburg,NA,-28.0167,18.75,81.05,41,7,8.16,clear sky
106,Lompoc,US,34.6391,-120.4579,84.69,27,0,6.91,clear sky
107,Chuy,UY,-33.6971,-53.4616,72.5,40,1,13.87,clear sky
108,Port Blair,IN,11.6667,92.75,73.44,83,20,3.44,mist
109,Galesong,ID,-5.3166,119.3661,75.22,83,89,5.75,overcast clouds
110,Hamilton,US,39.1834,-84.5333,30.6,55,20,6.91,few clouds
111,Luderitz,NA,-26.6481,15.1594,75.22,62,0,12.1,clear sky
112,Smirnykh,RU,49.75,142.8333,7.2,94,97,5.77,overcast clouds
113,Victoria,HK,22.2855,114.1577,60.33,87,100,5.99,overcast clouds
114,Pisco,PE,-13.7,-76.2167,80.65,50,0,12.66,clear sky
115,Sorong,ID,-0.8833,131.25,77.61,86,100,7.58,overcast clouds
116,Tateyama,JP,34.9833,139.8667,38.01,98,100,28.59,moderate rain
117,Esperance,AU,-33.8667,121.9,58.84,74,0,10.65,clear sky
118,Haines Junction,CA,60.7522,-137.5108,13.95,79,100,0.0,overcast clouds
119,Tiksi,RU,71.6872,128.8694,-12.95,93,11,11.83,few clouds
120,Bonthe,SL,7.5264,-12.505,78.82,84,29,8.32,scattered clouds
121,Beyneu,KZ,45.3167,55.2,31.14,74,100,20.96,overcast clouds
122,Makushino,RU,55.2103,67.2442,2.68,98,99,5.37,overcast clouds
123,Naze,JP,28.3667,129.4833,58.17,90,100,17.76,overcast clouds
124,Filingue,NE,14.3521,3.3168,78.37,9,2,7.07,clear sky
125,Upernavik,GL,72.7868,-56.1549,-6.79,96,100,14.14,overcast clouds
126,Moerai,PF,-22.4333,-151.3333,77.92,75,100,7.38,light rain
127,Gurupi,BR,-11.7292,-49.0686,77.61,88,99,3.74,overcast clouds
128,Binga,ZW,-17.6203,27.3414,74.32,74,6,2.93,clear sky
129,Kahului,US,20.8947,-156.47,76.26,76,40,10.36,scattered clouds
130,Atlantis,ZA,-33.5667,18.4834,67.35,83,0,11.83,clear sky
131,Avarua,CK,-21.2078,-159.775,78.85,83,100,3.44,overcast clouds
132,Mandalgovi,MN,45.7625,106.2708,-6.11,80,77,7.78,broken clouds
133,Vostok,RU,46.4856,135.8833,2.7,98,100,1.19,overcast clouds
134,Xai-Xai,MZ,-25.0519,33.6442,74.71,82,0,8.95,clear sky
135,Tres Picos,MX,15.8667,-93.5333,85.69,52,100,17.09,overcast clouds
136,Seminole,US,28.7086,-81.2081,73.98,79,75,16.11,broken clouds
137,Neiafu,TO,-18.65,-173.9833,81.28,83,40,5.75,scattered clouds
138,Uvalde,US,29.3669,-99.767,62.4,18,0,9.22,clear sky
139,Oksfjord,NO,70.2396,22.3479,20.32,90,75,7.31,broken clouds
140,Calvinia,ZA,-31.4707,19.776,77.99,44,71,4.63,broken clouds
141,Bismarck,US,46.8083,-100.7837,45.88,58,0,13.8,clear sky
142,Portland,US,45.5234,-122.6762,60.94,46,0,5.75,clear sky
143,Hervey Bay,AU,-25.2986,152.8535,68.11,78,13,18.39,few clouds
144,Prattville,US,32.464,-86.4597,51.4,20,0,14.97,clear sky
145,Tukrah,LY,32.5341,20.5791,53.91,76,0,2.48,clear sky
146,Birin,NP,26.8865,88.0718,44.02,80,2,3.94,clear sky
147,San Cristobal,VE,7.7669,-72.225,80.78,36,97,4.59,overcast clouds
148,Nalut,LY,30.3333,10.85,56.73,25,43,11.23,scattered clouds
149,Petatlan,MX,17.5167,-101.2667,89.01,37,100,7.0,overcast clouds
150,Batagay-Alyta,RU,67.8006,130.4114,-9.22,83,100,3.22,overcast clouds
151,Tarnogskiy Gorodok,RU,60.4997,43.5761,10.26,97,94,5.37,overcast clouds
152,Burnie,AU,-41.0667,145.9167,57.94,95,57,4.63,broken clouds
153,Mwinilunga,ZM,-11.7358,24.4293,62.31,96,90,0.69,light rain
154,Ulaangom,MN,49.9811,92.0667,-26.14,98,100,1.72,overcast clouds
155,Puerto Ayora,EC,-0.7393,-90.3518,82.36,87,87,8.01,overcast clouds
156,Kijang,KR,35.2442,129.2139,40.73,80,100,9.19,overcast clouds
157,Agadez,NE,19.75,10.25,63.61,14,0,4.52,clear sky
158,Oskemen,KZ,49.9565,82.6119,21.16,85,100,13.42,light snow
159,Kodiak,US,57.79,-152.4072,34.61,78,10,3.85,clear sky
160,Kanye,BW,-24.9667,25.3327,69.42,34,62,3.47,broken clouds
161,Sabang,ID,5.8933,95.3214,81.61,74,49,8.75,scattered clouds
162,Minab,IR,27.1467,57.0801,62.92,94,95,1.14,overcast clouds
163,College,US,64.8569,-147.8028,13.8,84,100,0.0,light snow
164,Bridlington,GB,54.0831,-0.1919,48.38,91,100,11.01,overcast clouds
165,Jacareacanga,BR,-6.2222,-57.7528,80.65,91,85,2.28,overcast clouds
166,Hirado,JP,33.3597,129.5531,49.39,71,100,25.93,light rain
167,Hilo,US,19.7297,-155.09,76.12,72,0,3.44,clear sky
168,Koregaon,IN,18.65,74.0833,68.95,51,5,6.44,clear sky
169,Ramanathapuram,IN,9.3833,78.8333,77.14,72,72,9.55,broken clouds
170,Pacific Grove,US,36.6177,-121.9166,79.81,53,0,4.61,clear sky
171,Nouadhibou,MR,20.931,-17.0347,67.98,73,100,16.11,overcast clouds
172,Praia Da Vitoria,PT,38.7333,-27.0667,59.25,77,75,7.07,broken clouds
173,Conde,BR,-7.2597,-34.9075,85.46,66,20,12.66,few clouds
174,Kalmunai,LK,7.4167,81.8167,76.03,83,98,6.33,overcast clouds
175,Constitucion,CL,-35.3333,-72.4167,67.98,70,53,9.31,broken clouds
176,Abha,SA,18.2164,42.5053,57.45,31,0,4.61,clear sky
177,Guerrero Negro,MX,27.9769,-114.0611,80.01,21,15,4.81,few clouds
178,Tecoanapa,MX,16.5167,-98.75,85.12,50,66,12.21,broken clouds
179,Mahebourg,MU,-20.4081,57.7,81.25,89,75,6.91,broken clouds
180,Saint-Pierre,RE,-21.3393,55.4781,80.28,83,20,18.41,few clouds
181,Iaciara,BR,-14.0958,-46.6317,76.28,76,56,2.51,light rain
182,Coahuayana,MX,18.7333,-103.6833,92.68,31,95,8.52,overcast clouds
183,Excelsior Springs,US,39.3392,-94.2261,33.71,35,0,11.5,clear sky
184,Cardston,CA,49.2,-113.3019,50.29,34,100,8.05,overcast clouds
185,Almaznyy,RU,48.0448,40.045,28.54,89,5,4.41,clear sky
186,Ordynskoye,RU,54.3656,81.8994,23.04,92,100,14.76,light snow
187,Nikolskoye,RU,59.7035,30.7861,33.87,89,100,12.95,snow
188,Usinsk,RU,65.9939,57.5281,9.63,96,99,9.4,overcast clouds
189,Katsuura,JP,35.1333,140.3,38.1,97,100,30.96,light rain
190,Luwuk,ID,-0.9516,122.7875,76.62,85,100,3.0,overcast clouds
191,Bilma,NE,18.6853,12.9164,69.84,11,0,6.6,clear sky
192,Havelock,US,34.8791,-76.9013,46.38,88,100,3.44,overcast clouds
193,Quchan,IR,37.106,58.5095,32.27,84,24,14.81,few clouds
194,Zhigansk,RU,66.7697,123.3711,-36.8,100,65,2.28,broken clouds
195,Sambava,MG,-14.2667,50.1667,76.73,86,49,3.51,moderate rain
196,Olafsvik,IS,64.8945,-23.7142,29.8,93,100,10.89,snow
197,Mildura,AU,-34.2,142.15,75.16,43,91,0.0,overcast clouds
198,Bethel,US,41.3712,-73.414,31.19,71,100,9.22,overcast clouds
199,Lorengau,PG,-2.0226,147.2712,80.33,79,100,1.54,overcast clouds
200,Coquimbo,CL,-29.9533,-71.3436,73.13,53,0,13.8,clear sky
201,Drayton Valley,CA,53.2168,-114.9854,35.91,78,98,5.61,overcast clouds
202,Victoria Point,AU,-27.5833,153.3,71.19,86,67,4.0,light rain
203,Seydi,TM,39.4816,62.9137,42.35,45,17,7.43,few clouds
204,Sinnamary,GF,5.3833,-52.95,78.8,86,67,9.57,broken clouds
205,Oranjestad,AW,12.524,-70.027,82.35,69,75,20.71,broken clouds
206,Batemans Bay,AU,-35.7167,150.1833,65.1,80,100,4.56,overcast clouds
207,Salalah,OM,17.0151,54.0924,77.09,38,0,3.44,clear sky
208,Mount Gambier,AU,-37.8333,140.7667,60.71,94,100,9.22,overcast clouds
209,Puerto Narino,CO,-3.7703,-70.3831,78.75,98,100,3.96,overcast clouds
210,Lokosovo,RU,61.1333,74.8167,-11.36,100,97,6.73,overcast clouds
211,Broome,US,42.2506,-75.833,24.62,60,100,11.5,overcast clouds
212,Namibe,AO,-15.1961,12.1522,75.52,80,100,3.24,overcast clouds
213,Karimganj,IN,24.8667,92.35,55.9,70,0,3.11,clear sky
214,Saldanha,ZA,-33.0117,17.9442,69.85,90,0,20.18,clear sky
215,Prince Rupert,CA,54.3161,-130.3201,42.89,87,100,19.57,overcast clouds
216,Cap Malheureux,MU,-19.9842,57.6142,81.46,78,90,7.0,overcast clouds
217,Avera,US,33.194,-82.5271,59.68,23,13,17.13,few clouds
218,Georgetown,MY,5.4112,100.3354,79.9,84,40,5.99,scattered clouds
219,Magrath,CA,49.4167,-112.8686,50.14,36,100,2.3,overcast clouds
220,Arvika,SE,59.6553,12.5852,41.7,92,100,11.12,overcast clouds
221,Vila,PT,42.0304,-8.1588,42.33,92,100,8.81,overcast clouds
222,Tarakan,ID,3.3,117.6333,76.5,94,40,0.0,scattered clouds
223,Alice Springs,AU,-23.7,133.8833,60.35,77,0,5.75,clear sky
224,Kupang,ID,-10.1667,123.5833,76.93,86,63,4.88,broken clouds
225,Talnakh,RU,69.4865,88.3972,-7.26,70,17,9.15,few clouds
226,Praia,CV,14.9215,-23.5087,75.74,64,0,18.41,clear sky
227,Komsomolskiy,UZ,40.4272,71.7189,38.12,87,75,4.61,mist
228,Forrest City,US,35.0081,-90.7898,42.58,37,0,14.47,clear sky
229,Kannauj,IN,27.0546,79.922,54.01,63,0,2.37,clear sky
230,Pemangkat,ID,1.1667,108.9667,78.3,86,97,1.74,overcast clouds
231,Illela,NG,13.7292,5.2975,78.33,10,75,9.26,broken clouds
232,La Ronge,CA,55.1001,-105.2842,8.85,72,20,10.36,few clouds
233,Baykit,RU,61.67,96.37,-16.76,100,96,3.71,overcast clouds
234,Palana,RU,59.1167,159.9667,-8.19,95,85,6.96,overcast clouds
235,Zuwarah,LY,32.9312,12.082,57.13,64,64,12.82,broken clouds
236,New Waterford,US,40.8451,-80.6145,27.14,64,100,1.99,overcast clouds
237,Ligayan,PH,4.6533,119.4706,81.88,76,99,12.55,overcast clouds
238,Longyearbyen,SJ,78.2186,15.6401,13.84,92,75,2.3,light snow
239,Dudinka,RU,69.4058,86.1778,-14.91,88,13,6.93,few clouds
240,Loandjili,CG,-4.7561,11.8578,82.51,78,40,5.75,thunderstorm
241,Shache,CN,38.4167,77.2406,31.71,46,2,6.08,clear sky
242,Kyaikkami,MM,16.08,97.5675,77.0,52,92,3.09,overcast clouds
243,Touros,BR,-5.1989,-35.4608,88.7,71,10,12.5,clear sky
244,Klaksvik,FO,62.2266,-6.589,34.72,66,100,30.33,overcast clouds
245,Saint-Augustin,CA,51.226,-58.6502,1.92,75,1,11.39,clear sky
246,Pangnirtung,CA,66.1451,-65.7125,-25.6,75,0,2.3,clear sky
247,Verkh-Chebula,RU,56.0308,87.6218,7.75,96,100,6.13,overcast clouds
248,Westport,US,41.1415,-73.3579,32.45,79,100,12.66,snow
249,Termoli,IT,41.9888,14.9895,46.58,75,80,5.41,broken clouds
250,Sioux Lookout,CA,50.1001,-91.917,-3.62,54,75,4.61,broken clouds
251,Penhold,CA,52.1334,-113.8687,42.93,52,0,8.05,clear sky
252,Dikson,RU,73.5069,80.5464,-4.09,87,100,25.34,overcast clouds
253,Tasiilaq,GL,65.6145,-37.6368,17.76,71,100,9.89,overcast clouds
254,Torbay,CA,47.6666,-52.7314,43.57,62,75,21.85,broken clouds
255,Diamantino,BR,-14.4086,-56.4461,80.94,78,93,1.95,moderate rain
256,Vila Velha,BR,-20.3297,-40.2925,82.35,82,75,13.8,broken clouds
257,Presidente Medici,BR,-11.1753,-61.9014,75.36,95,100,3.69,overcast clouds
258,Goderich,CA,43.7501,-81.7165,16.12,73,100,2.3,overcast clouds
259,Eureka,US,40.8021,-124.1637,45.21,65,82,5.01,broken clouds
260,Aklavik,CA,68.2191,-135.0107,-24.77,68,75,3.44,broken clouds
261,Vaiano,IT,43.949,11.1232,50.25,72,40,4.61,scattered clouds
262,Fortuna,US,40.5982,-124.1573,50.92,100,0,5.75,clear sky
263,Sun Valley,US,39.5963,-119.776,64.35,31,40,5.75,scattered clouds
264,Krasnoselkup,RU,65.7,82.4667,-1.8,92,62,13.0,broken clouds
265,Shingu,JP,33.7333,135.9833,45.91,87,100,4.81,overcast clouds
266,Palmer,US,42.1584,-72.3287,31.98,66,100,8.05,overcast clouds
267,Kavieng,PG,-2.5744,150.7967,80.74,78,96,6.8,overcast clouds
268,Gumla,IN,23.05,84.55,54.14,31,0,2.8,clear sky
269,Scottsbluff,US,41.8666,-103.6672,56.79,21,0,18.41,clear sky
270,Ornskoldsvik,SE,63.2909,18.7153,34.75,93,75,8.05,broken clouds
271,Wiang Sa,TH,8.6359,99.3666,80.67,93,62,1.57,broken clouds
272,Verkhnevilyuysk,RU,63.4453,120.3167,-22.04,100,100,2.04,overcast clouds
273,Saint George,US,37.1041,-113.5841,70.36,20,0,3.44,clear sky
274,Port Lincoln,AU,-34.7333,135.8667,65.95,85,92,9.98,overcast clouds
275,Revda,RU,56.801,59.9303,20.21,96,100,5.28,overcast clouds
276,Cidreira,BR,-30.1811,-50.2056,70.32,91,100,7.7,overcast clouds
277,Autazes,BR,-3.5797,-59.1306,85.23,65,76,3.91,broken clouds
278,Vung Tau,VN,10.346,107.0843,79.3,82,29,19.06,scattered clouds
279,Channel-Port Aux Basques,CA,47.5702,-59.1367,23.95,71,100,16.69,overcast clouds
280,Khatanga,RU,71.9667,102.5,-24.38,93,83,2.77,broken clouds
281,Camamu,BR,-13.9447,-39.1039,78.96,80,100,5.17,overcast clouds
282,Manggar,ID,-2.8833,108.2667,77.23,86,90,2.15,overcast clouds
283,Saint-Francois,FR,46.4154,3.9054,49.44,62,0,16.11,clear sky
284,Nedjo,ET,9.5046,35.5019,67.6,31,59,4.97,broken clouds
285,Tagab,AF,34.855,69.6492,45.12,68,100,4.34,overcast clouds
286,Moctezuma,MX,29.8,-109.6667,76.14,11,5,5.55,clear sky
287,Azare,NG,11.6765,10.1948,73.71,12,2,9.31,clear sky
288,Lasa,IT,46.6166,10.7002,31.08,63,1,2.06,clear sky
289,Phuket,TH,8.0,98.25,79.02,83,75,5.75,broken clouds
290,Kamaishi,JP,39.2667,141.8833,32.72,69,100,3.87,overcast clouds
291,Zaysan,KZ,47.4667,84.8667,12.38,84,100,2.3,overcast clouds
292,Tahta,EG,26.7693,31.5021,61.12,34,0,8.48,clear sky
293,Gorontalo,ID,0.5412,123.0595,73.09,93,97,1.86,overcast clouds
294,Qeshm,IR,26.9581,56.2719,62.49,65,99,6.49,overcast clouds
295,Sao Joao Da Barra,BR,-21.6403,-41.0511,82.49,85,11,12.86,few clouds
296,Businga,CD,3.3333,20.8833,76.62,31,96,1.41,overcast clouds
297,Nantucket,US,41.2835,-70.0995,37.51,86,100,17.27,overcast clouds
298,Lagoa,PT,39.05,-27.9833,56.43,61,92,5.41,overcast clouds
299,Tual,ID,-5.6667,132.75,80.96,77,100,8.77,overcast clouds
300,Kuzino,RU,57.0224,59.4412,13.44,98,100,3.62,overcast clouds
301,Fort Frances,CA,48.5999,-93.4003,2.16,52,0,6.91,clear sky
302,Boueni,YT,-12.9025,45.0761,78.78,73,1,3.2,clear sky
303,Vila Franca Do Campo,PT,37.7167,-25.4333,59.41,74,2,5.32,clear sky
304,Qasigiannguit,GL,68.8193,-51.1922,23.25,59,100,25.88,overcast clouds
305,Trinidad,BO,-14.8333,-64.9,84.18,54,75,11.5,light rain
306,Changying,CN,52.8733,123.3213,-6.18,100,100,2.46,overcast clouds
307,Seoul,KR,37.5683,126.9778,31.44,80,0,2.3,clear sky
308,Krasnovka,RU,48.8177,40.0923,21.2,95,6,5.14,clear sky
309,Beira,MZ,-19.8436,34.8389,80.69,83,20,9.22,few clouds
310,High Level,CA,58.5169,-117.136,-0.29,71,40,8.05,scattered clouds
311,Gejiu,CN,23.306,103.1635,40.03,93,35,3.31,scattered clouds
312,Iralaya,HN,15.0,-83.2333,82.49,64,0,9.93,clear sky
313,Maskinonge,CA,46.2286,-73.0192,7.34,59,100,4.61,overcast clouds
314,Dori,BF,14.0354,-0.0345,80.96,9,0,7.43,clear sky
315,Teya,RU,60.3778,92.6267,-17.01,100,22,3.38,few clouds
316,Ridgecrest,US,35.6225,-117.6709,71.65,13,0,1.99,clear sky
317,Nago,JP,26.5881,127.9761,64.83,91,100,11.36,light rain
318,Bengkulu,ID,-3.8004,102.2655,76.21,89,100,3.96,moderate rain
319,Katobu,ID,-4.9408,122.5276,73.78,95,83,3.96,broken clouds
320,Hasaki,JP,35.7333,140.8333,34.29,92,100,33.24,overcast clouds
321,Kautokeino,NO,69.0125,23.0412,4.41,98,100,2.68,overcast clouds
322,Deggendorf,DE,48.8333,12.9667,37.87,84,0,4.47,clear sky
323,Nur,PL,52.6683,22.3221,33.78,64,6,12.35,clear sky
324,Ayorou,NE,14.7308,0.9174,78.62,10,0,6.29,clear sky
325,Mishan,CN,45.55,131.8833,-12.01,100,52,3.02,broken clouds
326,Novaya Malykla,RU,54.2,49.95,17.4,96,83,4.56,light snow
327,Cockburn Town,TC,21.4612,-71.1419,80.56,65,40,17.27,scattered clouds
328,San Carlos De Bariloche,AR,-41.1456,-71.3082,85.75,13,0,24.16,clear sky
329,Noumea,NC,-22.2763,166.4572,80.01,99,100,4.94,overcast clouds
330,Caravelas,BR,-17.7125,-39.2481,79.74,76,90,9.73,overcast clouds
331,Bairiki,KI,1.3292,172.9752,80.6,78,20,3.44,few clouds
332,Plettenberg Bay,ZA,-34.0527,23.3716,67.26,85,29,3.58,scattered clouds
333,Chicama,PE,-7.8447,-79.1469,70.34,53,74,11.68,broken clouds
334,Loikaw,MM,19.6742,97.2094,54.77,32,18,3.6,few clouds
335,Kyren,RU,51.6828,102.1408,-8.3,95,99,1.41,overcast clouds
336,Granada,ES,37.25,-3.25,45.45,80,100,6.33,overcast clouds
337,Dunedin,NZ,-45.8742,170.5036,54.81,78,5,3.36,clear sky
338,Tougue,GN,11.4667,-11.6,72.23,16,0,3.2,clear sky
339,Netarhat,IN,23.4833,84.2667,45.88,34,0,2.28,clear sky
340,Datong,CN,40.0936,113.2914,2.61,82,4,4.03,clear sky
341,Ostrovnoy,RU,68.0531,39.5131,15.66,66,100,17.31,overcast clouds
342,Iqaluit,CA,63.7506,-68.5145,-16.31,75,100,3.44,overcast clouds
343,Lienz,AT,46.8289,12.769,31.71,89,5,3.24,clear sky
344,Millinocket,US,45.6573,-68.7098,20.91,32,0,5.75,clear sky
345,Kathmandu,NP,27.7167,85.3167,46.62,93,20,2.3,mist
346,Fort-Shevchenko,KZ,44.5086,50.263,35.33,64,56,14.0,broken clouds
347,Kruisfontein,ZA,-34.0033,24.7314,65.23,91,16,7.49,few clouds
348,Stony Plain,CA,53.5334,-114.0021,37.51,60,0,13.8,clear sky
349,Sao Filipe,CV,14.8961,-24.4956,75.6,59,52,11.52,broken clouds
350,Puerto Baquerizo Moreno,EC,-0.9,-89.6,81.59,74,75,12.66,broken clouds
351,Tucupita,VE,9.0622,-62.051,82.87,55,97,6.26,overcast clouds
352,Bosaso,SO,11.2842,49.1816,73.53,72,13,2.55,few clouds
353,Mwense,ZM,-10.3845,28.698,65.12,92,100,1.63,overcast clouds
354,Khilok,RU,51.3674,110.4676,-22.13,100,57,2.26,broken clouds
355,Grindavik,IS,63.8424,-22.4338,28.87,93,75,6.91,broken clouds
356,Svetlyy,RU,54.675,20.1347,35.65,73,100,16.53,overcast clouds
357,Tass,HU,47.021,19.0299,37.9,73,8,8.05,clear sky
358,Labrea,BR,-7.2586,-64.7981,76.03,94,100,2.08,moderate rain
359,Corinto,GR,37.9407,22.9573,51.89,74,22,3.91,few clouds
360,Colares,PT,38.7992,-9.4469,58.33,85,75,20.0,light intensity drizzle
361,Mae Hong Son,TH,19.3003,97.9685,57.51,38,62,2.08,broken clouds
362,Nampula,MZ,-15.1165,39.2666,69.75,100,100,5.99,thunderstorm with rain
363,Tura,IN,25.5198,90.2201,54.39,70,0,4.59,clear sky
364,Jalgaon,IN,21.0167,75.5667,70.05,35,0,5.3,clear sky
365,Fare,PF,-16.7,-151.0167,80.78,74,100,15.82,light rain
366,Koslan,RU,63.4564,48.8989,4.33,100,93,3.56,overcast clouds
367,Payakumbuh,ID,-0.2202,100.6308,68.54,96,100,2.73,overcast clouds
368,Areka,ET,7.0667,37.7,65.68,35,52,6.78,broken clouds
369,Itanagar,IN,27.1,93.6167,52.93,74,0,4.25,clear sky
370,Lebu,CL,-37.6167,-73.65,65.7,72,84,11.63,broken clouds
371,Bac Lieu,VN,9.285,105.7244,78.71,82,12,11.86,few clouds
372,Lithakia,GR,37.7167,20.8333,54.59,71,8,4.21,clear sky
373,Nuuk,GL,64.1835,-51.7216,9.21,78,75,10.36,broken clouds
374,Marzuq,YE,14.4,46.4667,59.99,44,2,3.62,clear sky
375,Ust-Tsilma,RU,65.441,52.1498,-2.56,100,58,3.96,broken clouds
376,Broken Hill,AU,-31.95,141.4333,76.71,33,100,12.66,overcast clouds
377,Fairbanks,US,64.8378,-147.7164,13.82,83,100,0.0,light snow
378,Port Hedland,AU,-20.3167,118.5667,82.45,89,40,8.05,scattered clouds
379,Yenagoa,NG,4.9247,6.2642,81.54,74,31,8.05,scattered clouds
380,Donskoy,RU,53.9711,38.3363,22.28,86,100,12.59,light snow
381,Kichmengskiy Gorodok,RU,59.9816,45.7854,0.68,100,82,3.67,broken clouds
382,Ventspils,LV,57.3894,21.5606,37.33,87,0,18.41,clear sky
383,Plymouth,US,41.8334,-70.8328,32.83,91,100,11.5,snow
384,Aketi,CD,2.7388,23.7833,76.24,32,73,1.41,broken clouds
385,El Corpus,HN,14.7,-88.9167,81.28,88,75,4.61,broken clouds
386,Horodnytsya,UA,50.807,27.3168,30.49,71,72,9.24,broken clouds
387,Antofagasta,CL,-23.65,-70.4,72.21,61,80,10.6,broken clouds
388,Basoko,CD,1.2391,23.616,79.61,40,84,0.51,broken clouds
389,Coffs Harbour,AU,-30.3,153.1333,66.16,94,75,4.61,broken clouds
390,Thanh Hoa,VN,19.8,105.7667,57.54,79,100,5.77,overcast clouds
391,Zhuhai,CN,22.2769,113.5678,60.06,88,40,17.27,scattered clouds
392,Nelson Bay,AU,-32.7167,152.15,64.99,72,100,9.48,overcast clouds
393,Ambilobe,MG,-13.2,49.05,73.31,94,82,2.13,light rain
394,Biak,ID,-0.9131,122.8766,75.24,85,100,4.79,overcast clouds
395,Vallenar,CL,-28.5708,-70.7581,84.87,25,0,10.65,clear sky
396,Ponta Do Sol,PT,32.6667,-17.1,65.07,60,96,2.33,overcast clouds
397,Ucluelet,CA,48.9329,-125.5528,53.1,63,98,1.01,overcast clouds
398,Dangara,IN,29.6799,75.8931,52.47,69,0,6.08,clear sky
399,Big Bend,SZ,-26.8167,31.9333,70.34,88,79,2.04,broken clouds
400,Maniitsoq,GL,65.4167,-52.9,3.02,87,100,15.73,light snow
401,Marawi,PH,7.9986,124.2928,63.64,91,100,2.95,overcast clouds
402,Nishihara,JP,26.1842,127.7558,65.48,94,100,21.85,light rain
403,Kolvereid,NO,64.8655,11.6047,33.03,71,97,18.92,overcast clouds
404,Pervomayskoye,RU,43.919,46.7102,33.22,61,4,4.99,clear sky
405,Banamba,ML,13.55,-7.45,74.57,12,4,9.78,clear sky
406,Bulungu,CD,-4.55,18.6,71.22,94,100,2.77,overcast clouds
407,Timmins,CA,48.4669,-81.3331,-0.58,50,20,2.3,few clouds
408,Penzberg,DE,47.75,11.3833,36.28,74,2,5.08,clear sky
409,Chateaubelair,VC,13.2833,-61.25,81.21,69,40,10.36,scattered clouds
410,Hobyo,SO,5.3505,48.5268,77.16,74,79,16.06,broken clouds
411,Graaff-Reinet,ZA,-32.2522,24.5308,71.92,75,66,2.51,broken clouds
412,Thornbury,GB,52.2333,-2.55,50.43,92,100,12.19,overcast clouds
413,Morris,US,40.8334,-74.5329,31.23,80,100,5.01,light snow
414,Launceston,AU,-41.45,147.1667,58.15,92,75,6.91,broken clouds
415,Balabac,PH,7.9868,117.0645,80.35,79,100,13.51,overcast clouds
416,Brande,DK,55.9381,9.1218,40.37,67,100,17.72,overcast clouds
417,Quatre Cocos,MU,-20.2078,57.7625,81.09,83,76,14.34,broken clouds
418,Shajapur,IN,23.4333,76.2667,60.24,33,0,6.31,clear sky
419,Mula,ES,38.0409,-1.4901,51.85,78,44,4.47,scattered clouds
420,Liberal,US,37.0431,-100.921,58.23,25,0,12.66,clear sky
421,Linxia,CN,35.6003,103.2064,12.72,80,68,3.38,broken clouds
422,Geraldton,AU,-28.7667,114.6,73.81,88,100,6.91,overcast clouds
423,Kushiro,JP,42.975,144.3747,19.56,95,92,5.86,overcast clouds
424,Bubaque,GW,11.2833,-15.8333,78.37,69,5,13.94,clear sky
425,Atasu,KZ,48.6814,71.6433,26.01,96,100,12.21,light snow
426,Kohlu,PK,29.8962,69.252,52.72,36,80,2.53,broken clouds
427,Del Rio,US,29.3627,-100.8968,62.71,23,0,9.22,clear sky
428,Poronaysk,RU,49.2167,143.1167,6.69,95,87,7.07,overcast clouds
429,Varkaus,FI,62.3153,27.873,32.31,97,100,11.77,overcast clouds
430,Mbini,GQ,1.574,9.6134,80.44,79,100,6.11,overcast clouds
431,Tshikapa,CD,-6.4167,20.8,70.34,96,100,3.09,overcast clouds
432,Pampa,US,35.5362,-100.9599,59.58,20,0,8.05,clear sky
433,Daru,PG,-9.0763,143.2092,78.89,80,51,9.51,broken clouds
434,Chibombo,ZM,-14.6569,28.0706,63.82,94,94,4.45,overcast clouds
435,Waingapu,ID,-9.6567,120.2641,77.52,87,84,4.07,broken clouds
436,Udachnyy,RU,66.4167,112.4,-21.95,94,63,1.79,broken clouds
437,Shatura,RU,55.5725,39.5368,24.96,92,100,7.78,light snow
438,Rabo De Peixe,PT,37.8,-25.5833,60.28,80,75,8.05,broken clouds
439,Yakeshi,CN,49.2833,120.7333,-32.01,100,99,1.66,overcast clouds
440,Edd,ER,13.9297,41.6925,77.61,76,57,4.21,broken clouds
441,Makakilo City,US,21.3469,-158.0858,76.28,69,0,5.75,clear sky
442,Nouakchott,MR,18.0858,-15.9785,71.53,43,100,7.54,overcast clouds
443,Chipinge,ZW,-20.1883,32.6236,63.7,58,3,2.98,clear sky
444,Souillac,MU,-20.5167,57.5167,81.36,89,75,6.91,light rain
445,Fort Nelson,CA,58.8053,-122.7002,0.99,71,75,4.61,broken clouds
446,Cairns,AU,-16.9167,145.7667,76.95,85,40,11.5,light rain
447,Belfort,FR,47.6333,6.8667,43.27,77,6,1.86,clear sky
448,Mikhaylovka,RU,50.06,43.2379,23.79,93,6,8.12,clear sky
449,Vanimo,PG,-2.6741,141.3028,77.4,89,99,5.57,overcast clouds
450,Khani,GE,41.9563,42.9566,31.57,87,71,5.77,broken clouds
451,Rawson,AR,-43.3002,-65.1023,89.74,21,0,19.89,clear sky
452,Kabare,CD,-2.4683,28.8242,60.53,94,90,3.02,overcast clouds
453,Hami,CN,42.8,93.45,26.29,51,73,5.59,broken clouds
454,Cheremisinovo,RU,51.8855,37.2646,24.91,91,16,9.37,few clouds
455,Deputatskiy,RU,69.3,139.9,-22.02,96,83,6.78,broken clouds
456,Tevaitoa,PF,-16.7833,-151.5,80.74,74,100,15.3,light rain
457,Ferrol,ES,43.4832,-8.2369,52.68,77,46,19.57,scattered clouds
458,Meridian,US,43.6121,-116.3915,43.16,54,0,8.05,clear sky
459,Saryg-Sep,RU,51.5,95.6,-29.36,98,58,3.49,broken clouds
460,Iwanai,JP,42.9744,140.5089,29.57,85,97,9.57,light snow
461,Rocha,UY,-34.4833,-54.3333,68.22,50,3,15.26,clear sky
462,Algiers,DZ,36.7525,3.042,48.02,81,0,2.3,clear sky
463,Karymskoye,RU,51.6167,114.35,-18.87,100,85,1.54,overcast clouds
464,Leninskoye,KZ,41.7589,69.3864,37.33,84,100,4.88,overcast clouds
465,Corum,TR,40.5,34.75,28.72,95,100,2.26,overcast clouds
466,Muli,MV,2.9167,73.5667,81.77,77,100,15.32,overcast clouds
467,Ust-Nera,RU,64.5667,143.2,-35.52,96,57,1.66,broken clouds
468,Huarmey,PE,-10.0681,-78.1522,77.31,69,5,12.41,clear sky
469,Lengshuijiang,CN,27.6881,111.4294,38.97,91,31,1.72,scattered clouds
470,Khasan,RU,42.4308,130.6434,18.54,62,100,7.49,overcast clouds
471,Punta De Bombon,PE,-17.1717,-71.7931,73.62,72,29,9.44,scattered clouds
472,Dabakala,CI,8.3667,-4.4333,84.0,31,6,4.59,clear sky
473,Monster,NL,52.0258,4.175,52.02,69,100,18.41,overcast clouds
474,Olavarria,AR,-36.8927,-60.3225,79.02,40,1,11.14,clear sky
475,Vestmanna,FO,62.1564,-7.1664,32.92,64,100,17.27,overcast clouds
476,Sechura,PE,-5.5569,-80.8222,82.0,57,90,16.51,overcast clouds
477,Itarema,BR,-2.9248,-39.9167,82.27,72,8,13.76,clear sky
478,Gongzhuling,CN,43.5008,124.8198,8.82,77,100,12.68,overcast clouds
479,Teluknaga,ID,-6.0989,106.6381,78.64,94,20,2.3,mist
480,Francisco Sa,BR,-16.4758,-43.4883,80.74,69,19,4.12,few clouds
481,Cayenne,GF,4.9333,-52.3333,82.44,82,75,17.27,broken clouds
482,Quesnel,CA,52.9999,-122.5029,34.3,64,100,2.3,overcast clouds
483,Tiznit,MA,29.5833,-9.5,55.6,66,0,3.0,clear sky
484,Umm Kaddadah,SD,13.6017,26.6876,66.42,17,14,12.15,few clouds
485,Faya,SA,18.3851,42.4509,57.72,41,69,3.98,broken clouds
486,Havoysund,NO,70.9963,24.6622,21.43,84,100,7.9,light snow
487,Nanortalik,GL,60.1432,-45.2371,29.03,80,100,9.42,overcast clouds
488,Golden,US,39.7555,-105.2211,56.1,24,15,8.01,few clouds
489,Wollongong,AU,-34.4333,150.8833,69.19,89,100,6.89,overcast clouds
490,Sitka,US,57.0531,-135.33,37.29,81,100,8.05,overcast clouds
491,Oranjemund,NA,-28.55,16.4333,66.45,81,0,12.1,clear sky
492,Kulhudhuffushi,MV,6.6221,73.07,79.81,80,100,10.22,overcast clouds
493,Sivaki,RU,52.6333,126.75,-0.51,98,98,5.7,overcast clouds
494,Galdar,ES,28.147,-15.6502,65.35,72,0,11.79,clear sky
495,Merritt Island,US,28.5392,-80.672,73.98,71,20,9.22,few clouds
496,Flin Flon,CA,54.7682,-101.865,4.84,72,100,4.61,overcast clouds
497,Olinda,BR,-8.0089,-34.8553,85.73,70,40,9.22,scattered clouds
498,Voh,NC,-20.9667,164.7,78.04,87,100,3.76,overcast clouds
499,Tra Vinh,VN,9.9347,106.3453,78.12,80,46,9.13,scattered clouds
500,Mecca,SA,21.4267,39.8261,75.67,38,0,2.46,clear sky
501,Norsup,VU,-16.0667,167.3833,80.98,82,91,10.87,overcast clouds
502,Quirinopolis,BR,-18.4483,-50.4517,81.88,69,69,2.64,broken clouds
503,Whangamata,NZ,-37.2,175.8667,64.02,74,8,4.03,clear sky
504,Erdenet,MN,49.0333,104.0833,-14.12,99,100,0.94,overcast clouds
505,Wuda,CN,39.4994,106.7117,13.42,73,100,3.18,overcast clouds
506,Izhmorskiy,RU,56.194,86.6414,12.25,95,100,7.36,light snow
507,Samfya,ZM,-11.3649,29.5565,65.08,93,100,4.18,overcast clouds
508,Half Moon Bay,US,37.4636,-122.4286,78.1,56,0,0.0,clear sky
509,Hay River,CA,60.8156,-115.7999,-13.02,70,75,4.61,broken clouds
510,Honiara,SB,-9.4333,159.95,78.57,85,90,4.61,overcast clouds
511,Mokhsogollokh,RU,61.4681,128.9203,-22.36,100,98,1.34,overcast clouds
512,Hirtshals,DK,57.5881,9.9592,37.85,83,100,19.53,light rain
513,Narodychi,UA,51.2029,29.0823,31.26,70,76,11.1,broken clouds
514,El Carrizo,MX,24.0261,-106.8814,84.2,19,100,6.38,overcast clouds
515,Waycross,US,31.2136,-82.354,64.9,46,0,10.36,clear sky
516,Tommot,RU,58.9564,126.2925,-25.64,100,99,0.94,overcast clouds
517,Shakawe,BW,-18.3667,21.85,68.92,86,44,2.06,light rain
518,Petropavlovsk-Kamchatskiy,RU,53.0452,158.6483,10.99,62,75,6.71,broken clouds
519,Sheridan,US,44.8333,-106.9173,53.78,30,0,12.66,clear sky
520,Oshawa,CA,43.9001,-78.8496,15.98,56,40,5.75,scattered clouds
521,Mykolayivka,UA,47.5414,30.7561,31.28,67,5,6.71,clear sky
522,Bonfim,BR,3.0833,-59.95,92.14,41,99,6.67,overcast clouds
523,Kedrovyy,RU,56.1667,91.8167,-17.14,99,44,5.12,scattered clouds
524,Boende,CD,-0.2167,20.8667,81.64,60,95,5.23,overcast clouds
525,Mozelos,PT,41.8677,-8.3978,50.88,92,95,6.13,overcast clouds
526,Burns Lake,CA,54.2331,-125.7533,29.62,87,100,1.12,overcast clouds
527,Kavaratti,IN,10.5669,72.642,80.55,72,66,5.06,broken clouds
528,San Patricio,US,28.017,-97.5169,64.17,22,0,6.93,clear sky
529,Raudeberg,NO,61.9875,5.1352,39.87,94,100,1.99,light rain
530,Sept-Iles,CA,50.2001,-66.3821,7.05,56,40,8.05,scattered clouds
531,Lunenburg,CA,44.3835,-64.3155,33.22,73,100,9.22,overcast clouds
532,Stralsund,DE,54.3091,13.0818,39.6,73,100,15.59,overcast clouds
533,Kerouane,GN,9.2667,-9.0167,78.37,16,3,3.53,clear sky
534,Shelburne,CA,44.0787,-80.2041,13.57,66,100,3.65,overcast clouds
535,Verkhnetulomskiy,RU,68.6073,31.7962,14.13,88,100,7.96,overcast clouds
536,Ludvika,SE,60.1496,15.1878,40.8,91,100,12.88,overcast clouds
537,Hanamaki,JP,39.3833,141.1167,23.9,91,100,3.2,overcast clouds
538,Wahiawa,US,21.5028,-158.0236,75.47,74,0,4.61,clear sky
539,Krasnoarmeysk,RU,51.0239,45.6969,23.29,92,95,13.47,overcast clouds
540,Pesochnoye,RU,58.006,39.1772,28.71,93,100,9.64,snow
541,Chernyshevskiy,RU,63.0128,112.4714,-23.91,100,66,1.52,broken clouds
542,Omsukchan,RU,62.5333,155.8,-29.76,100,37,3.76,scattered clouds
543,Makokou,GA,0.5738,12.8642,75.88,77,25,4.79,scattered clouds
544,Kloulklubed,PW,7.0419,134.2556,77.5,83,100,20.92,overcast clouds
545,Tarko-Sale,RU,64.9225,77.785,-7.83,96,11,11.45,few clouds
546,Ternate,ID,0.8,127.4,79.57,77,100,2.01,overcast clouds
547,Kununurra,AU,-15.7667,128.7333,80.58,74,75,17.27,broken clouds
548,Santa Cruz,BO,-17.8,-63.1667,85.46,48,75,14.97,broken clouds
549,Buchanan,LR,5.8808,-10.0467,82.36,83,44,6.33,scattered clouds
550,Fukue,JP,32.6881,128.8419,52.38,66,100,23.31,light rain
551,Ahipara,NZ,-35.1667,173.1667,64.69,68,78,9.46,broken clouds
552,Hovd,MN,48.0056,91.6419,-13.27,81,15,3.09,few clouds
553,Zhangye,CN,38.9342,100.4517,26.04,47,99,1.48,overcast clouds
554,Kriel,ZA,-26.2739,29.2253,66.81,42,98,5.41,overcast clouds
555,Gambo,CF,4.6482,22.2633,76.01,30,100,1.72,overcast clouds
556,Mabaruma,GY,8.2,-59.7833,77.79,83,85,7.36,overcast clouds
557,Saint-Louis,SN,16.3333,-15.0,85.64,12,57,10.04,broken clouds
558,Eyl,SO,7.9803,49.8164,75.07,70,88,19.24,overcast clouds
559,Mareeba,AU,-17.0,145.4333,72.32,90,14,2.28,few clouds
560,Puerto Madero,MX,14.7208,-92.4215,84.85,61,1,11.05,clear sky
561,Ordzhonikidze,KZ,52.4411,61.7408,16.65,96,100,5.03,overcast clouds
562,Isangel,VU,-19.55,169.2667,78.91,94,40,4.61,scattered clouds
563,Sijunjung,ID,-0.6876,100.9537,71.04,97,100,2.04,overcast clouds
564,Calama,CL,-22.4667,-68.9333,73.89,18,0,26.46,clear sky
565,Vammala,FI,61.3333,22.9,34.75,98,100,12.28,overcast clouds
566,Pimentel,PE,-6.8367,-79.9342,82.69,54,0,14.97,clear sky
567,Kaduna,NG,10.5222,7.4383,76.73,12,22,9.1,few clouds
568,Hanzhong,CN,33.0728,107.0303,40.12,78,32,1.79,scattered clouds
569,Pogranichnyy,RU,44.4064,131.3769,-1.93,97,70,3.36,broken clouds
570,Sherlovaya Gora,RU,50.5667,116.25,-29.88,100,79,3.76,broken clouds
571,Decatur,US,39.8403,-88.9548,22.87,93,100,12.66,mist
572,Manado,ID,1.487,124.8455,72.37,94,40,2.3,scattered clouds
573,Labuhan,ID,-6.8844,112.2051,75.9,91,100,4.05,overcast clouds
574,Riyadh,SA,24.6877,46.7219,55.54,30,0,7.63,clear sky
575,Kabo,CF,7.6994,18.629,81.39,14,100,5.77,overcast clouds
576,Pevek,RU,69.7008,170.3133,-17.43,98,100,8.88,overcast clouds
577,West Bay,KY,19.3667,-81.4167,82.06,78,75,5.01,broken clouds
578,Aksu,CN,41.1231,80.2644,29.03,40,8,4.32,clear sky
579,Igrim,RU,63.1906,64.4162,-16.55,100,89,2.21,overcast clouds
580,Semirara,PH,12.0697,121.3986,79.52,82,100,16.53,overcast clouds
581,Snezhnogorsk,RU,69.1933,33.2531,13.78,80,100,10.78,light snow
582,Qaqortoq,GL,60.7167,-46.0333,28.9,88,100,8.23,overcast clouds
583,Korla,CN,41.7597,86.1469,29.28,46,0,4.54,clear sky
584,Kenai,US,60.5544,-151.2583,29.08,97,100,0.0,light snow
585,Manono,CD,-7.3,27.4167,69.71,95,100,3.13,overcast clouds
586,Slave Lake,CA,55.2834,-114.769,28.38,69,0,8.05,clear sky
587,Hualmay,PE,-11.0964,-77.6139,76.51,69,12,12.48,few clouds
588,Naica,MX,27.85,-105.4833,57.65,19,80,4.76,broken clouds
589,Walla Walla,US,46.0646,-118.343,56.03,60,0,3.44,clear sky
590,Sivagiri,IN,9.3333,77.4333,74.14,77,83,2.13,broken clouds
591,Atar,MR,20.5169,-13.0499,71.78,17,100,9.06,overcast clouds
592,Lakhnadon,IN,22.6,79.6,58.96,24,0,0.92,clear sky
593,Acarau,BR,-2.8856,-40.12,82.47,72,8,15.21,clear sky
594,Sukhumi,GE,43.0033,41.0153,42.3,79,77,5.03,broken clouds
595,Skjervoy,NO,70.0311,20.9714,10.4,69,87,7.96,overcast clouds
596,Tezu,IN,27.9167,96.1667,53.58,45,0,5.03,clear sky
597,Jertih,MY,5.7336,102.4897,76.91,93,22,2.55,few clouds
598,Guaruja,BR,-23.9931,-46.2564,89.2,52,100,6.91,overcast clouds
599,Mahajanga,MG,-15.7167,46.3167,80.62,83,40,4.61,scattered clouds
600,Kanniyakumari,IN,8.0833,77.5667,77.86,76,90,17.2,overcast clouds
601,Kemijarvi,FI,66.7131,27.4306,24.62,95,100,9.82,light snow
602,Akdepe,TM,42.0551,59.3788,41.09,68,100,21.54,overcast clouds
603,Porto Torres,IT,40.835,8.3972,50.09,85,16,6.31,few clouds
604,Kutum,SD,14.2,24.6667,64.87,13,10,9.93,clear sky
605,New Richmond,US,45.123,-92.5366,10.62,40,0,5.75,clear sky
606,Mangrol,IN,21.1167,70.1167,68.29,57,0,11.18,clear sky
607,Quelimane,MZ,-17.8786,36.8883,76.95,94,75,0.0,broken clouds
608,Tabou,CI,4.423,-7.3528,78.48,84,47,7.58,scattered clouds
609,Kyshtovka,RU,56.555,76.6271,4.68,98,98,2.93,overcast clouds
610,Meulaboh,ID,4.1363,96.1285,76.33,90,88,4.85,overcast clouds
611,Pochutla,MX,15.7432,-96.4661,88.83,44,100,9.93,overcast clouds
612,Yamethin,MM,20.4333,96.15,61.05,43,31,3.15,scattered clouds
613,Kiunga,PG,-6.1219,141.2906,72.95,96,100,1.7,overcast clouds
614,Teluk Nibung,ID,3.001,99.8164,75.04,93,91,4.18,overcast clouds
615,Cascais,PT,38.6979,-9.4215,58.51,83,40,20.0,scattered clouds
616,Loa Janan,ID,-0.583,117.095,72.16,97,100,0.47,overcast clouds
617,Mutis,CO,6.2262,-77.4044,79.2,88,98,4.18,light rain
618,Yatou,CN,37.15,122.3833,36.45,79,100,7.07,light rain
619,Tarime,TZ,-1.35,34.3667,64.56,76,100,4.74,overcast clouds
620,Birao,CF,10.2849,22.7882,74.73,9,46,6.67,scattered clouds
621,Pozzallo,IT,36.7305,14.8499,54.25,87,70,6.31,broken clouds
622,Madang,PG,-5.2246,145.7966,75.06,94,100,4.76,overcast clouds
623,Bud,US,39.447,-86.1758,26.74,79,100,8.88,light snow
624,Envira,BR,-7.3,-70.2167,74.93,96,100,3.27,light rain
625,Shenjiamen,CN,29.9576,122.298,43.9,81,100,16.28,overcast clouds
626,Taoudenni,ML,22.6783,-3.9836,66.18,22,0,11.59,clear sky
627,Storforshei,NO,66.4043,14.5233,20.98,100,75,2.3,broken clouds
628,General Roca,AR,-39.0333,-67.5833,91.8,9,37,8.59,scattered clouds
629,Shuangcheng,CN,45.35,126.2833,-6.12,97,100,6.53,overcast clouds
630,Maldonado,UY,-34.6667,-54.9167,67.39,49,8,15.84,clear sky
631,Muros,ES,42.7762,-9.0603,52.84,73,9,18.28,clear sky
632,Yar-Sale,RU,66.8333,70.8333,-12.03,94,100,9.08,overcast clouds
633,Ruthin,GB,53.1137,-3.3178,47.79,92,100,1.99,overcast clouds
634,Klyuchi,RU,52.2667,79.1667,23.95,94,100,11.92,overcast clouds
635,Dharchula,IN,29.85,80.5333,45.9,41,0,7.83,clear sky
636,Diamantina,BR,-18.2494,-43.6003,70.7,80,39,3.83,scattered clouds
637,Los Llanos De Aridane,ES,28.6585,-17.9182,62.35,66,20,11.5,few clouds
638,Auki,SB,-8.7676,160.7034,77.22,87,100,4.79,overcast clouds
639,Marovoay,MG,-16.1,46.6333,80.74,91,63,2.39,light rain
640,Zhangjiakou,CN,40.81,114.8794,2.32,76,21,7.61,light snow
641,Panjakent,TJ,39.4952,67.6093,37.2,84,72,3.27,broken clouds
642,San Jose,US,37.3394,-121.895,78.6,49,20,5.75,few clouds
643,Manta,EC,-0.95,-80.7333,82.18,69,75,5.75,broken clouds
644,Yellapur,IN,14.9667,74.7167,63.88,71,0,1.48,clear sky
645,Kurilsk,RU,45.2333,147.8833,26.51,70,61,6.58,broken clouds
646,Baruun-Urt,MN,46.6806,113.2792,-17.46,99,72,2.33,broken clouds
647,Evensk,RU,61.95,159.2333,-5.31,73,30,9.13,scattered clouds
648,Benguela,AO,-12.5763,13.4055,77.04,81,80,3.56,broken clouds
649,Camocim,BR,-2.9022,-40.8411,83.16,72,16,16.42,light rain
650,San Quintin,MX,30.4833,-115.95,76.03,20,9,7.52,clear sky
651,Ponta Delgada,PT,37.7333,-25.6667,61.5,67,75,8.05,broken clouds
652,Linhares,BR,-19.3911,-40.0722,80.4,75,38,8.52,scattered clouds
653,Orlik,RU,52.5178,99.825,-17.72,98,100,2.33,overcast clouds
654,Formosa,AR,-26.1775,-58.1781,87.78,35,0,8.05,clear sky
655,Bavly,RU,54.393,53.2602,12.34,97,92,4.59,overcast clouds
656,Grand Gaube,MU,-20.0064,57.6608,81.37,78,89,7.0,overcast clouds
657,Belmonte,BR,-15.8631,-38.8828,84.2,87,100,10.42,overcast clouds
658,Bati,ET,11.1833,40.0167,68.16,54,36,2.95,scattered clouds
659,Shah Alam,MY,3.0851,101.5328,78.51,89,20,1.14,few clouds
660,Mega,ET,4.05,38.3,68.52,25,55,8.25,broken clouds
661,Jalu,LY,29.0331,21.5482,56.95,48,81,7.45,broken clouds
662,Igarka,RU,67.4667,86.5833,-11.11,89,10,7.61,clear sky
663,Bouna,CI,9.2667,-3.0,82.36,14,7,2.42,clear sky
664,Emerald,AU,-23.5333,148.1667,69.94,83,0,5.75,clear sky
665,Kindu,CD,-2.95,25.95,70.63,98,100,2.71,overcast clouds
666,Takhtamygda,RU,54.1,123.5667,-5.73,95,100,2.53,overcast clouds
667,Talaya,RU,61.3833,152.75,-41.13,100,81,1.45,broken clouds
668,Liepaja,LV,56.5419,21.0367,37.45,81,0,14.97,clear sky
669,Bambanglipuro,ID,-7.95,110.2833,61.61,94,100,5.84,very heavy rain
670,Akyab,MM,20.15,92.9,64.33,57,87,7.4,overcast clouds
671,Turukhansk,RU,65.8167,87.9833,-7.42,88,17,11.41,few clouds
672,Malakal,SS,9.5334,31.6605,84.25,16,0,7.76,clear sky
673,Zemio,CF,5.0314,25.1361,79.5,25,100,3.91,overcast clouds
674,Thunder Bay,CA,48.4001,-89.3168,5.56,52,20,6.91,few clouds
675,Olden,NO,61.8364,6.8064,39.9,95,100,7.23,overcast clouds
676,Apt,FR,43.8833,5.4,46.6,81,100,12.26,overcast clouds
677,Kodinar,IN,20.7903,70.7031,66.79,52,0,12.12,clear sky
678,Ulladulla,AU,-35.35,150.4667,63.88,79,100,7.16,overcast clouds
679,Lavrentiya,RU,65.5833,-171.0,-22.0,93,25,2.86,scattered clouds
680,Nazarovo,RU,56.0064,90.3914,-14.55,100,76,5.39,broken clouds
681,Chiredzi,ZW,-21.05,31.6667,73.27,47,0,4.05,clear sky
682,Marsh Harbour,BS,26.5412,-77.0636,75.51,80,100,19.28,overcast clouds
683,Sfantu Gheorghe,RO,45.8667,25.7833,32.67,82,100,2.82,overcast clouds
